[{"tzLabel":"America/Thunder_Bay","tz":"http://www.wikidata.org/entity/Q63286028","cityLabel":"Thunder Bay","city":"http://www.wikidata.org/entity/Q34116","lat":"48.3822","long":"-89.2461"},{"tzLabel":"Europe/Kiev","tz":"http://www.wikidata.org/entity/Q63286014","cityLabel":"Kyiv","city":"http://www.wikidata.org/entity/Q1899","lat":"50.45","long":"30.523611111111"},{"tzLabel":"America/Recife","tz":"http://www.wikidata.org/entity/Q63286081","cityLabel":"Recife","city":"http://www.wikidata.org/entity/Q48344","lat":"-8.0538888888889","long":"-34.880833333333"},{"tzLabel":"America/Barbados","tz":"http://www.wikidata.org/entity/Q63286056","cityLabel":"Barbados","city":"http://www.wikidata.org/entity/Q244","lat":"13.17","long":"-59.5525"},{"tzLabel":"America/Creston","tz":"http://www.wikidata.org/entity/Q63286037","cityLabel":"Creston","city":"http://www.wikidata.org/entity/Q1139747","lat":"49.06","long":"-116.31"},{"tzLabel":"Europe/Kirov","tz":"http://www.wikidata.org/entity/Q63286006","cityLabel":"Kirov","city":"http://www.wikidata.org/entity/Q5384","lat":"58.6","long":"49.65"},{"tzLabel":"America/Fort_Nelson","tz":"http://www.wikidata.org/entity/Q63286036","cityLabel":"Fort Nelson","city":"http://www.wikidata.org/entity/Q606045","lat":"58.8059","long":"-122.696"},{"tzLabel":"America/Santo_Domingo","tz":"http://www.wikidata.org/entity/Q63286061","cityLabel":"Santo Domingo","city":"http://www.wikidata.org/entity/Q34820","lat":"18.476388888889","long":"-69.893333333333"},{"tzLabel":"America/Noronha","tz":"http://www.wikidata.org/entity/Q63286078","cityLabel":"Fernando de Noronha","city":"http://www.wikidata.org/entity/Q175057","lat":"-3.8538083333333","long":"-32.423786111111"},{"tzLabel":"America/Cuiaba","tz":"http://www.wikidata.org/entity/Q63286085","cityLabel":"Cuiabá","city":"http://www.wikidata.org/entity/Q170762","lat":"-15.595833333333","long":"-56.096944444444"},{"tzLabel":"Atlantic/Stanley","tz":"http://www.wikidata.org/entity/Q63286096","cityLabel":"Stanley","city":"http://www.wikidata.org/entity/Q12245","lat":"-51.693861","long":"-57.849556"},{"tzLabel":"America/Panama","tz":"http://www.wikidata.org/entity/Q63286069","cityLabel":"Panama","city":"http://www.wikidata.org/entity/Q804","lat":"8.616667","long":"-80.366667"},{"tzLabel":"America/Sitka","tz":"http://www.wikidata.org/entity/Q63286018","cityLabel":"Sitka","city":"http://www.wikidata.org/entity/Q79804","lat":"57.053333333333","long":"-135.33472222222"},{"tzLabel":"America/Rio_Branco","tz":"http://www.wikidata.org/entity/Q63286089","cityLabel":"Rio Branco","city":"http://www.wikidata.org/entity/Q171612","lat":"-9.9781","long":"-67.8117"},{"tzLabel":"America/Rio_Branco","tz":"http://www.wikidata.org/entity/Q63286089","cityLabel":"Rio Branco","city":"http://www.wikidata.org/entity/Q171612","lat":"-9.9780555555556","long":"-67.8117"},{"tzLabel":"America/Rio_Branco","tz":"http://www.wikidata.org/entity/Q63286089","cityLabel":"Rio Branco","city":"http://www.wikidata.org/entity/Q171612","lat":"-9.9781","long":"-67.811666666667"},{"tzLabel":"America/Rio_Branco","tz":"http://www.wikidata.org/entity/Q63286089","cityLabel":"Rio Branco","city":"http://www.wikidata.org/entity/Q171612","lat":"-9.9780555555556","long":"-67.811666666667"},{"tzLabel":"America/Guatemala","tz":"http://www.wikidata.org/entity/Q63286063","cityLabel":"Guatemala","city":"http://www.wikidata.org/entity/Q774","lat":"15.5","long":"-90.25"},{"tzLabel":"America/Santiago","tz":"http://www.wikidata.org/entity/Q63286090","cityLabel":"Santiago","city":"http://www.wikidata.org/entity/Q2887","lat":"-33.45","long":"-70.666666666667"},{"tzLabel":"Europe/Kaliningrad","tz":"http://www.wikidata.org/entity/Q63286003","cityLabel":"Kaliningrad","city":"http://www.wikidata.org/entity/Q1829","lat":"54.716666666667","long":"20.5"},{"tzLabel":"Atlantic/South_Georgia","tz":"http://www.wikidata.org/entity/Q63286100","cityLabel":"South Georgia","city":"http://www.wikidata.org/entity/Q1137202","lat":"-54.316666666667","long":"-36.65"},{"tzLabel":"America/Pangnirtung","tz":"http://www.wikidata.org/entity/Q63286038","cityLabel":"Pangnirtung","city":"http://www.wikidata.org/entity/Q631747","lat":"66.1478","long":"-65.6994"},{"tzLabel":"America/Atikokan","tz":"http://www.wikidata.org/entity/Q63286032","cityLabel":"Atikokan","city":"http://www.wikidata.org/entity/Q4815788","lat":"48.75","long":"-91.6167"},{"tzLabel":"Asia/Yekaterinburg","tz":"http://www.wikidata.org/entity/Q63286010","cityLabel":"Yekaterinburg","city":"http://www.wikidata.org/entity/Q887","lat":"56.833333333333","long":"60.583333333333"},{"tzLabel":"America/Whitehorse","tz":"http://www.wikidata.org/entity/Q63286046","cityLabel":"Whitehorse","city":"http://www.wikidata.org/entity/Q2058","lat":"60.717222222222","long":"-135.05583333333"},{"tzLabel":"Pacific/Galapagos","tz":"http://www.wikidata.org/entity/Q63286095","cityLabel":"Galápagos Islands","city":"http://www.wikidata.org/entity/Q38095","lat":"-0.66666666666667","long":"-90.55"},{"tzLabel":"America/Martinique","tz":"http://www.wikidata.org/entity/Q63286067","cityLabel":"Martinique","city":"http://www.wikidata.org/entity/Q17054","lat":"14.666666666667","long":"-61.0"},{"tzLabel":"Asia/Barnaul","tz":"http://www.wikidata.org/entity/Q63286011","cityLabel":"Barnaul","city":"http://www.wikidata.org/entity/Q6014","lat":"53.356666666667","long":"83.787222222222"},{"tzLabel":"America/Sao_Paulo","tz":"http://www.wikidata.org/entity/Q63286084","cityLabel":"São Paulo","city":"http://www.wikidata.org/entity/Q174","lat":"-23.550394444444","long":"-46.633947222222"},{"tzLabel":"America/Cayenne","tz":"http://www.wikidata.org/entity/Q63286097","cityLabel":"Cayenne","city":"http://www.wikidata.org/entity/Q44401","lat":"4.9386111111111","long":"-52.335"},{"tzLabel":"America/Port_of_Spain","tz":"http://www.wikidata.org/entity/Q63286103","cityLabel":"Port of Spain","city":"http://www.wikidata.org/entity/Q39178","lat":"10.666666666667","long":"-61.516666666667"},{"tzLabel":"America/Inuvik","tz":"http://www.wikidata.org/entity/Q63286045","cityLabel":"Inuvik","city":"http://www.wikidata.org/entity/Q338686","lat":"68.361666666667","long":"-133.73055555556"},{"tzLabel":"America/Nome","tz":"http://www.wikidata.org/entity/Q63286021","cityLabel":"Nome","city":"http://www.wikidata.org/entity/Q79996","lat":"64.5","long":"-165.4"},{"tzLabel":"America/Mexico_City","tz":"http://www.wikidata.org/entity/Q63286051","cityLabel":"Mexico City","city":"http://www.wikidata.org/entity/Q1489","lat":"19.419444444444","long":"-99.145555555556"},{"tzLabel":"America/Belize","tz":"http://www.wikidata.org/entity/Q63286058","cityLabel":"Belize","city":"http://www.wikidata.org/entity/Q242","lat":"17.066666666667","long":"-88.7"},{"tzLabel":"America/Cambridge_Bay","tz":"http://www.wikidata.org/entity/Q63286043","cityLabel":"Cambridge Bay","city":"http://www.wikidata.org/entity/Q719611","lat":"69.117222222222","long":"-105.05305555556"},{"tzLabel":"America/Montevideo","tz":"http://www.wikidata.org/entity/Q63286104","cityLabel":"Montevideo","city":"http://www.wikidata.org/entity/Q1335","lat":"-34.866944444444","long":"-56.166666666667"},{"tzLabel":"America/Asuncion","tz":"http://www.wikidata.org/entity/Q63286098","cityLabel":"Asunción","city":"http://www.wikidata.org/entity/Q2933","lat":"-25.3","long":"-57.633333333333"},{"tzLabel":"America/Montreal","tz":"http://www.wikidata.org/entity/Q79053366","cityLabel":"Montreal","city":"http://www.wikidata.org/entity/Q340","lat":"45.508888888889","long":"-73.561666666667"},{"tzLabel":"America/Hermosillo","tz":"http://www.wikidata.org/entity/Q63286053","cityLabel":"Hermosillo","city":"http://www.wikidata.org/entity/Q189138","lat":"29.095555555556","long":"-110.95083333333"},{"tzLabel":"America/Manaus","tz":"http://www.wikidata.org/entity/Q63286087","cityLabel":"Manaus","city":"http://www.wikidata.org/entity/Q40236","lat":"-3.1","long":"-60.016666666667"},{"tzLabel":"America/Yellowknife","tz":"http://www.wikidata.org/entity/Q63286044","cityLabel":"Yellowknife","city":"http://www.wikidata.org/entity/Q2061","lat":"62.442222222222","long":"-114.3975"},{"tzLabel":"America/Metlakatla","tz":"http://www.wikidata.org/entity/Q63286019","cityLabel":"Metlakatla","city":"http://www.wikidata.org/entity/Q2037538","lat":"55.12667","long":"-131.57639"},{"tzLabel":"America/Fortaleza","tz":"http://www.wikidata.org/entity/Q63286080","cityLabel":"Fortaleza","city":"http://www.wikidata.org/entity/Q43463","lat":"-3.7813888888889","long":"-38.588888888889"},{"tzLabel":"America/Merida","tz":"http://www.wikidata.org/entity/Q63286048","cityLabel":"Merida","city":"http://www.wikidata.org/entity/Q165204","lat":"20.97","long":"-89.62"},{"tzLabel":"America/El_Salvador","tz":"http://www.wikidata.org/entity/Q63286062","cityLabel":"El Salvador","city":"http://www.wikidata.org/entity/Q792","lat":"13.668889","long":"-88.866111"},{"tzLabel":"Atlantic/Bermuda","tz":"http://www.wikidata.org/entity/Q63286059","cityLabel":"Bermuda","city":"http://www.wikidata.org/entity/Q23635","lat":"32.333333","long":"-64.75"},{"tzLabel":"America/Swift_Current","tz":"http://www.wikidata.org/entity/Q63286034","cityLabel":"Swift Current","city":"http://www.wikidata.org/entity/Q619937","lat":"50.288055555556","long":"-107.79388888889"},{"tzLabel":"America/Glace_Bay","tz":"http://www.wikidata.org/entity/Q63286025","cityLabel":"Glace Bay","city":"http://www.wikidata.org/entity/Q3108251","lat":"46.2","long":"-59.9667"},{"tzLabel":"America/Tijuana","tz":"http://www.wikidata.org/entity/Q63286055","cityLabel":"Tijuana","city":"http://www.wikidata.org/entity/Q124739","lat":"32.530833333333","long":"-117.02"},{"tzLabel":"America/Moncton","tz":"http://www.wikidata.org/entity/Q63286026","cityLabel":"Moncton","city":"http://www.wikidata.org/entity/Q457334","lat":"46.093333","long":"-64.775"},{"tzLabel":"America/Maceio","tz":"http://www.wikidata.org/entity/Q63286083","cityLabel":"Maceió","city":"http://www.wikidata.org/entity/Q168888","lat":"-9.6658333333333","long":"-35.735"},{"tzLabel":"America/Iqaluit","tz":"http://www.wikidata.org/entity/Q63286039","cityLabel":"Iqaluit","city":"http://www.wikidata.org/entity/Q2030","lat":"63.75","long":"-68.55"},{"tzLabel":"Europe/Volgograd","tz":"http://www.wikidata.org/entity/Q63286005","cityLabel":"Volgograd","city":"http://www.wikidata.org/entity/Q914","lat":"48.7","long":"44.483333333333"},{"tzLabel":"America/Dawson_Creek","tz":"http://www.wikidata.org/entity/Q63286035","cityLabel":"Dawson Creek","city":"http://www.wikidata.org/entity/Q1012625","lat":"55.760555555556","long":"-120.23555555556"},{"tzLabel":"America/North_Dakota/Center","tz":"http://www.wikidata.org/entity/Q63286016","cityLabel":"Center","city":"http://www.wikidata.org/entity/Q2087867","lat":"47.115","long":"-101.30027777778"},{"tzLabel":"Europe/Samara","tz":"http://www.wikidata.org/entity/Q63286007","cityLabel":"Samara","city":"http://www.wikidata.org/entity/Q894","lat":"53.183333333333","long":"50.116666666667"},{"tzLabel":"America/Nipigon","tz":"http://www.wikidata.org/entity/Q63286029","cityLabel":"Nipigon","city":"http://www.wikidata.org/entity/Q1993247","lat":"49.015277777778","long":"-88.268333333333"},{"tzLabel":"America/Rainy_River","tz":"http://www.wikidata.org/entity/Q63286031","cityLabel":"Rainy River","city":"http://www.wikidata.org/entity/Q3492477","lat":"48.716666666667","long":"-94.566666666667"},{"tzLabel":"America/Jamaica","tz":"http://www.wikidata.org/entity/Q63286066","cityLabel":"Jamaica","city":"http://www.wikidata.org/entity/Q766","lat":"18.18","long":"-77.4"},{"tzLabel":"America/Halifax","tz":"http://www.wikidata.org/entity/Q63286024","cityLabel":"Halifax","city":"http://www.wikidata.org/entity/Q2141","lat":"44.647777777778","long":"-63.571388888889"},{"tzLabel":"America/Punta_Arenas","tz":"http://www.wikidata.org/entity/Q63286091","cityLabel":"Punta Arenas","city":"http://www.wikidata.org/entity/Q51599","lat":"-53.15","long":"-70.916666666667"},{"tzLabel":"Asia/Chita","tz":"http://www.wikidata.org/entity/Q63286013","cityLabel":"Chita","city":"http://www.wikidata.org/entity/Q53139","lat":"52.033333333333","long":"113.5"},{"tzLabel":"America/La_Paz","tz":"http://www.wikidata.org/entity/Q63286077","cityLabel":"La Paz","city":"http://www.wikidata.org/entity/Q1491","lat":"-16.494166666667","long":"-68.1475"},{"tzLabel":"America/Costa_Rica","tz":"http://www.wikidata.org/entity/Q63286060","cityLabel":"Costa Rica","city":"http://www.wikidata.org/entity/Q800","lat":"10.0","long":"-84.0"},{"tzLabel":"America/Guayaquil","tz":"http://www.wikidata.org/entity/Q63286093","cityLabel":"Guayaquil","city":"http://www.wikidata.org/entity/Q43509","lat":"-2.1833333333333","long":"-79.883333333333"},{"tzLabel":"America/Porto_Velho","tz":"http://www.wikidata.org/entity/Q63286086","cityLabel":"Porto Velho","city":"http://www.wikidata.org/entity/Q172512","lat":"-8.7619444444444","long":"-63.903888888889"},{"tzLabel":"America/Porto_Velho","tz":"http://www.wikidata.org/entity/Q63286086","cityLabel":"Porto Velho","city":"http://www.wikidata.org/entity/Q172512","lat":"-9.20787","long":"-64.31064"},{"tzLabel":"America/Yakutat","tz":"http://www.wikidata.org/entity/Q63286020","cityLabel":"Yakutat","city":"http://www.wikidata.org/entity/Q487681","lat":"59.546944444444","long":"-139.72722222222"},{"tzLabel":"America/Tegucigalpa","tz":"http://www.wikidata.org/entity/Q63286065","cityLabel":"Tegucigalpa","city":"http://www.wikidata.org/entity/Q3238","lat":"14.094166666667","long":"-87.206666666667"},{"tzLabel":"America/Port-au-Prince","tz":"http://www.wikidata.org/entity/Q63286064","cityLabel":"Port-au-Prince","city":"http://www.wikidata.org/entity/Q34261","lat":"18.5425","long":"-72.338611111111"},{"tzLabel":"America/Matamoros","tz":"http://www.wikidata.org/entity/Q63286049","cityLabel":"Heroica Matamoros","city":"http://www.wikidata.org/entity/Q738353","lat":"25.879722222222","long":"-97.504166666667"},{"tzLabel":"Europe/Monaco","tz":"http://www.wikidata.org/entity/Q63286002","cityLabel":"Monaco","city":"http://www.wikidata.org/entity/Q235","lat":"43.7333","long":"7.4166666666667"},{"tzLabel":"Europe/Monaco","tz":"http://www.wikidata.org/entity/Q63286002","cityLabel":"Monaco","city":"http://www.wikidata.org/entity/Q235","lat":"43.733333333333","long":"7.4166666666667"},{"tzLabel":"Europe/Monaco","tz":"http://www.wikidata.org/entity/Q63286002","cityLabel":"Monaco","city":"http://www.wikidata.org/entity/Q235","lat":"43.7333","long":"7.4167"},{"tzLabel":"Europe/Monaco","tz":"http://www.wikidata.org/entity/Q63286002","cityLabel":"Monaco","city":"http://www.wikidata.org/entity/Q235","lat":"43.733333333333","long":"7.4167"},{"tzLabel":"America/Grand_Turk","tz":"http://www.wikidata.org/entity/Q63286076","cityLabel":"Grand Turk Island","city":"http://www.wikidata.org/entity/Q1473924","lat":"21.472222222222","long":"-71.138888888889"},{"tzLabel":"America/Dawson","tz":"http://www.wikidata.org/entity/Q63286047","cityLabel":"Dawson City","city":"http://www.wikidata.org/entity/Q372324","lat":"64.066666666667","long":"-139.42916666667"},{"tzLabel":"America/Monterrey","tz":"http://www.wikidata.org/entity/Q63286050","cityLabel":"Monterrey","city":"http://www.wikidata.org/entity/Q81033","lat":"25.671388888889","long":"-100.30861111111"},{"tzLabel":"America/Puerto_Rico","tz":"http://www.wikidata.org/entity/Q63286070","cityLabel":"Puerto Rico","city":"http://www.wikidata.org/entity/Q1183","lat":"18.25","long":"-66.5"},{"tzLabel":"America/Miquelon","tz":"http://www.wikidata.org/entity/Q63302003","cityLabel":"Miquelon Island","city":"http://www.wikidata.org/entity/Q1923969","lat":"47.066666666667","long":"-56.35"},{"tzLabel":"Europe/Astrakhan","tz":"http://www.wikidata.org/entity/Q63286004","cityLabel":"Astrakhan","city":"http://www.wikidata.org/entity/Q3927","lat":"46.333333333333","long":"48.016666666667"},{"tzLabel":"America/Managua","tz":"http://www.wikidata.org/entity/Q63286068","cityLabel":"Managua","city":"http://www.wikidata.org/entity/Q3274","lat":"12.15","long":"-86.266666666667"},{"tzLabel":"America/Atikokan","tz":"http://www.wikidata.org/entity/Q63286032","cityLabel":"Coral Harbour","city":"http://www.wikidata.org/entity/Q652770","lat":"64.136944444444","long":"-83.164166666667"},{"tzLabel":"Europe/Ulyanovsk","tz":"http://www.wikidata.org/entity/Q63286009","cityLabel":"Ulyanovsk","city":"http://www.wikidata.org/entity/Q5627","lat":"54.316666666667","long":"48.366666666667"},{"tzLabel":"America/Resolute","tz":"http://www.wikidata.org/entity/Q63286041","cityLabel":"Resolute","city":"http://www.wikidata.org/entity/Q606622","lat":"74.6975","long":"-94.832222222222"},{"tzLabel":"America/Bogota","tz":"http://www.wikidata.org/entity/Q63286092","cityLabel":"Bogotá","city":"http://www.wikidata.org/entity/Q2841","lat":"4.5988888888889","long":"-74.080833333333"},{"tzLabel":"America/Blanc-Sablon","tz":"http://www.wikidata.org/entity/Q63286027","cityLabel":"Blanc-Sablon","city":"http://www.wikidata.org/entity/Q2905888","lat":"51.4133875","long":"-57.2018045"},{"tzLabel":"Asia/Novokuznetsk","tz":"http://www.wikidata.org/entity/Q63286012","cityLabel":"Novokuznetsk","city":"http://www.wikidata.org/entity/Q93910","lat":"53.75","long":"87.116666666667"},{"tzLabel":"America/Paramaribo","tz":"http://www.wikidata.org/entity/Q63286102","cityLabel":"Paramaribo","city":"http://www.wikidata.org/entity/Q3001","lat":"5.8666666666667","long":"-55.166666666667"},{"tzLabel":"Europe/Uzhgorod","tz":"http://www.wikidata.org/entity/Q63286015","cityLabel":"Uzhhorod","city":"http://www.wikidata.org/entity/Q156711","lat":"48.623888888889","long":"22.295"},{"tzLabel":"America/Goose_Bay","tz":"http://www.wikidata.org/entity/Q63286023","cityLabel":"Happy Valley-Goose Bay","city":"http://www.wikidata.org/entity/Q1266964","lat":"53.301944444444","long":"-60.416666666667"},{"tzLabel":"America/Menominee","tz":"http://www.wikidata.org/entity/Q63286022","cityLabel":"Menominee","city":"http://www.wikidata.org/entity/Q2635319","lat":"45.107777777778","long":"-87.614166666667"},{"tzLabel":"America/Regina","tz":"http://www.wikidata.org/entity/Q63286033","cityLabel":"Regina","city":"http://www.wikidata.org/entity/Q2123","lat":"50.454722222222","long":"-104.60666666667"},{"tzLabel":"America/Rankin_Inlet","tz":"http://www.wikidata.org/entity/Q63286042","cityLabel":"Rankin Inlet","city":"http://www.wikidata.org/entity/Q1021766","lat":"62.811388888889","long":"-92.115833333333"},{"tzLabel":"Europe/Gibraltar","tz":"http://www.wikidata.org/entity/Q63285999","cityLabel":"Gibraltar","city":"http://www.wikidata.org/entity/Q1410","lat":"36.13775","long":"-5.3453611111111"},{"tzLabel":"America/Mazatlan","tz":"http://www.wikidata.org/entity/Q63286054","cityLabel":"Mazatlán","city":"http://www.wikidata.org/entity/Q40194","lat":"23.241388888889","long":"-106.40972222222"},{"tzLabel":"America/Santarem","tz":"http://www.wikidata.org/entity/Q63286079","cityLabel":"Santarém","city":"http://www.wikidata.org/entity/Q659450","lat":"-2.4427777777778","long":"-54.707777777778"},{"tzLabel":"America/Ojinaga","tz":"http://www.wikidata.org/entity/Q63286052","cityLabel":"Ojinaga","city":"http://www.wikidata.org/entity/Q1971351","lat":"29.564444444444","long":"-104.41638888889"},{"tzLabel":"Europe/Chisinau","tz":"http://www.wikidata.org/entity/Q63286001","cityLabel":"Chișinău","city":"http://www.wikidata.org/entity/Q21197","lat":"47.005555555556","long":"28.8575"},{"tzLabel":"Atlantic/Reykjavik","tz":"http://www.wikidata.org/entity/Q63286000","cityLabel":"Reykjavík","city":"http://www.wikidata.org/entity/Q1764","lat":"64.15","long":"-21.883333333333"},{"tzLabel":"America/North_Dakota/Beulah","tz":"http://www.wikidata.org/entity/Q63286017","cityLabel":"Beulah","city":"http://www.wikidata.org/entity/Q176998","lat":"47.268055555556","long":"-101.77722222222"},{"tzLabel":"America/Lima","tz":"http://www.wikidata.org/entity/Q63286099","cityLabel":"Lima","city":"http://www.wikidata.org/entity/Q2868","lat":"-12.05","long":"-77.033333333333"},{"tzLabel":"America/Eirunepe","tz":"http://www.wikidata.org/entity/Q63286088","cityLabel":"Eirunepé","city":"http://www.wikidata.org/entity/Q1646910","lat":"-6.6597222222222","long":"-69.874444444444"},{"tzLabel":"America/Phoenix","tz":"http://www.wikidata.org/entity/Q28145151","cityLabel":"Phoenix","city":"http://www.wikidata.org/entity/Q16556","lat":"33.528333333333","long":"-112.07638888889"},{"tzLabel":"Antarctica/Troll","tz":"http://www.wikidata.org/entity/Q21652080","cityLabel":"Troll","city":"http://www.wikidata.org/entity/Q1082371","lat":"-72.011388888889","long":"2.535"},{"tzLabel":"America/Denver","tz":"http://www.wikidata.org/entity/Q28145790","cityLabel":"Denver","city":"http://www.wikidata.org/entity/Q16554","lat":"39.739166666667","long":"-104.98472222222"},{"tzLabel":"Africa/Ceuta","tz":"http://www.wikidata.org/entity/Q4689486","cityLabel":"Ceuta","city":"http://www.wikidata.org/entity/Q5823","lat":"35.886667","long":"-5.3"},{"tzLabel":"Asia/Amman","tz":"http://www.wikidata.org/entity/Q4806274","cityLabel":"Amman","city":"http://www.wikidata.org/entity/Q3805","lat":"31.95","long":"35.933333333333"},{"tzLabel":"Europe/Budapest","tz":"http://www.wikidata.org/entity/Q5412101","cityLabel":"Budapest","city":"http://www.wikidata.org/entity/Q1781","lat":"47.498333333333","long":"19.040833333333"},{"tzLabel":"Asia/Urumqi","tz":"http://www.wikidata.org/entity/Q4806313","cityLabel":"Ürümqi","city":"http://www.wikidata.org/entity/Q16959","lat":"43.825","long":"87.6"},{"tzLabel":"Antarctica/Syowa","tz":"http://www.wikidata.org/entity/Q4771025","cityLabel":"Showa Station","city":"http://www.wikidata.org/entity/Q1550784","lat":"-69.00441","long":"39.58179"},{"tzLabel":"America/Indiana/Tell_City","tz":"http://www.wikidata.org/entity/Q4742660","cityLabel":"Tell City","city":"http://www.wikidata.org/entity/Q2738191","lat":"37.9531","long":"-86.7614"},{"tzLabel":"America/New_York","tz":"http://www.wikidata.org/entity/Q28146035","cityLabel":"New York City","city":"http://www.wikidata.org/entity/Q60","lat":"40.67","long":"-73.94"},{"tzLabel":"Africa/Tripoli","tz":"http://www.wikidata.org/entity/Q4689523","cityLabel":"Tripoli","city":"http://www.wikidata.org/entity/Q3579","lat":"32.87519","long":"13.18746"},{"tzLabel":"Antarctica/DumontDUrville","tz":"http://www.wikidata.org/entity/Q4771016","cityLabel":"Dumont d'Urville Station","city":"http://www.wikidata.org/entity/Q403901","lat":"-66.662833","long":"140.001333"},{"tzLabel":"America/Chicago","tz":"http://www.wikidata.org/entity/Q15406405","cityLabel":"United States of America","city":"http://www.wikidata.org/entity/Q30","lat":"38.895","long":"-77.036666666667"},{"tzLabel":"Africa/Algiers","tz":"http://www.wikidata.org/entity/Q4689473","cityLabel":"Algiers","city":"http://www.wikidata.org/entity/Q3561","lat":"36.776388888889","long":"3.0586111111111"},{"tzLabel":"America/Indiana/Winamac","tz":"http://www.wikidata.org/entity/Q4742663","cityLabel":"Winamac","city":"http://www.wikidata.org/entity/Q2483205","lat":"41.05","long":"-86.6"},{"tzLabel":"America/Argentina/Salta","tz":"http://www.wikidata.org/entity/Q4742632","cityLabel":"Salta","city":"http://www.wikidata.org/entity/Q36307","lat":"-24.788333333333","long":"-65.410555555556"},{"tzLabel":"Antarctica/Syowa","tz":"http://www.wikidata.org/entity/Q4771025","cityLabel":"Showa Station","city":"http://www.wikidata.org/entity/Q1550784","lat":"-69.0","long":"39.5833"},{"tzLabel":"Asia/Irkutsk","tz":"http://www.wikidata.org/entity/Q4806284","cityLabel":"Irkutsk","city":"http://www.wikidata.org/entity/Q6576","lat":"52.283333333333","long":"104.3"},{"tzLabel":"Antarctica/Syowa","tz":"http://www.wikidata.org/entity/Q4771025","cityLabel":"Showa Station","city":"http://www.wikidata.org/entity/Q1550784","lat":"-69.004122","long":"39.581836"},{"tzLabel":"Europe/Copenhagen","tz":"http://www.wikidata.org/entity/Q5412103","cityLabel":"Copenhagen","city":"http://www.wikidata.org/entity/Q1748","lat":"55.676111111111","long":"12.568888888889"},{"tzLabel":"Europe/London","tz":"http://www.wikidata.org/entity/Q16894228","cityLabel":"London","city":"http://www.wikidata.org/entity/Q84","lat":"51.507222222222","long":"-0.1275"},{"tzLabel":"Asia/Tashkent","tz":"http://www.wikidata.org/entity/Q4806306","cityLabel":"Tashkent","city":"http://www.wikidata.org/entity/Q269","lat":"41.3","long":"69.266666666667"},{"tzLabel":"Australia/Sydney","tz":"http://www.wikidata.org/entity/Q4823536","cityLabel":"Sydney","city":"http://www.wikidata.org/entity/Q3130","lat":"-33.866666666667","long":"151.2"},{"tzLabel":"America/Toronto","tz":"http://www.wikidata.org/entity/Q4742700","cityLabel":"Toronto","city":"http://www.wikidata.org/entity/Q172","lat":"43.670277777778","long":"-79.386666666667"},{"tzLabel":"America/Boise","tz":"http://www.wikidata.org/entity/Q4742640","cityLabel":"Boise","city":"http://www.wikidata.org/entity/Q35775","lat":"43.613611111111","long":"-116.23777777778"},{"tzLabel":"America/Anchorage","tz":"http://www.wikidata.org/entity/Q4742623","cityLabel":"Anchorage","city":"http://www.wikidata.org/entity/Q39450","lat":"61.218333333333","long":"-149.89916666667"},{"tzLabel":"Asia/Karachi","tz":"http://www.wikidata.org/entity/Q4806288","cityLabel":"Karachi","city":"http://www.wikidata.org/entity/Q8660","lat":"24.86","long":"67.01"},{"tzLabel":"Asia/Dhaka","tz":"http://www.wikidata.org/entity/Q16879288","cityLabel":"Dhaka","city":"http://www.wikidata.org/entity/Q1354","lat":"23.716111111111","long":"90.396111111111"},{"tzLabel":"Europe/Madrid","tz":"http://www.wikidata.org/entity/Q5412114","cityLabel":"Madrid","city":"http://www.wikidata.org/entity/Q2807","lat":"40.418888888889","long":"-3.6919444444444"},{"tzLabel":"Asia/Urumqi","tz":"http://www.wikidata.org/entity/Q4806313","cityLabel":"Ürümqi","city":"http://www.wikidata.org/entity/Q16959","lat":"43.80096","long":"87.60046"},{"tzLabel":"Australia/Broken_Hill","tz":"http://www.wikidata.org/entity/Q4823524","cityLabel":"Broken Hill","city":"http://www.wikidata.org/entity/Q270734","lat":"-31.95","long":"141.45"},{"tzLabel":"America/Argentina/Buenos_Aires","tz":"http://www.wikidata.org/entity/Q4742625","cityLabel":"Buenos Aires","city":"http://www.wikidata.org/entity/Q1486","lat":"-34.599722222222","long":"-58.381944444444"},{"tzLabel":"America/Detroit","tz":"http://www.wikidata.org/entity/Q4742649","cityLabel":"Detroit","city":"http://www.wikidata.org/entity/Q12439","lat":"42.331666666667","long":"-83.0475"},{"tzLabel":"America/Chicago","tz":"http://www.wikidata.org/entity/Q15406405","cityLabel":"Chicago","city":"http://www.wikidata.org/entity/Q1297","lat":"41.881944444444","long":"-87.627777777778"},{"tzLabel":"America/Indiana/Winamac","tz":"http://www.wikidata.org/entity/Q4742663","cityLabel":"Winamac","city":"http://www.wikidata.org/entity/Q2483205","lat":"41.05143","long":"-86.60306"},{"tzLabel":"Africa/Accra","tz":"http://www.wikidata.org/entity/Q4689471","cityLabel":"Accra","city":"http://www.wikidata.org/entity/Q3761","lat":"5.6037","long":"-0.187"},{"tzLabel":"Asia/Tehran","tz":"http://www.wikidata.org/entity/Q4806307","cityLabel":"Tehran","city":"http://www.wikidata.org/entity/Q3616","lat":"35.7","long":"51.416666666667"},{"tzLabel":"Antarctica/Casey","tz":"http://www.wikidata.org/entity/Q4771014","cityLabel":"Casey Station","city":"http://www.wikidata.org/entity/Q1047169","lat":"-66.28225","long":"110.52779"},{"tzLabel":"Australia/Currie","tz":"http://www.wikidata.org/entity/Q4823525","cityLabel":"Currie","city":"http://www.wikidata.org/entity/Q1144879","lat":"55.896","long":"-3.30744"},{"tzLabel":"Europe/Prague","tz":"http://www.wikidata.org/entity/Q28146068","cityLabel":"Prague","city":"http://www.wikidata.org/entity/Q1085","lat":"50.083333333333","long":"14.416666666667"},{"tzLabel":"Asia/Shanghai","tz":"http://www.wikidata.org/entity/Q4806303","cityLabel":"Shanghai","city":"http://www.wikidata.org/entity/Q8686","lat":"31.166666666667","long":"121.46666666667"},{"tzLabel":"America/Denver","tz":"http://www.wikidata.org/entity/Q28145790","cityLabel":"Denver","city":"http://www.wikidata.org/entity/Q16554","lat":"39.73915","long":"-104.9847"},{"tzLabel":"Europe/Athens","tz":"http://www.wikidata.org/entity/Q5412093","cityLabel":"Athens","city":"http://www.wikidata.org/entity/Q1524","lat":"37.979444444444","long":"23.716111111111"},{"tzLabel":"Antarctica/Casey","tz":"http://www.wikidata.org/entity/Q4771014","cityLabel":"Casey Station","city":"http://www.wikidata.org/entity/Q1047169","lat":"-66.281666666667","long":"110.52444444444"},{"tzLabel":"Europe/Dublin","tz":"http://www.wikidata.org/entity/Q28145974","cityLabel":"Dublin","city":"http://www.wikidata.org/entity/Q1761","lat":"53.3425","long":"-6.2658333333333"},{"tzLabel":"Asia/Jakarta","tz":"http://www.wikidata.org/entity/Q4806285","cityLabel":"Jakarta","city":"http://www.wikidata.org/entity/Q3630","lat":"-6.21462","long":"106.8451"},{"tzLabel":"Asia/Jakarta","tz":"http://www.wikidata.org/entity/Q4806285","cityLabel":"Jakarta","city":"http://www.wikidata.org/entity/Q3630","lat":"-6.2146","long":"106.8451"},{"tzLabel":"Asia/Jakarta","tz":"http://www.wikidata.org/entity/Q4806285","cityLabel":"Jakarta","city":"http://www.wikidata.org/entity/Q3630","lat":"-6.21462","long":"106.84513"},{"tzLabel":"Asia/Jakarta","tz":"http://www.wikidata.org/entity/Q4806285","cityLabel":"Jakarta","city":"http://www.wikidata.org/entity/Q3630","lat":"-6.2146","long":"106.84513"},{"tzLabel":"America/Los_Angeles","tz":"http://www.wikidata.org/entity/Q4742667","cityLabel":"Los Angeles","city":"http://www.wikidata.org/entity/Q65","lat":"34.05223","long":"-118.24368"},{"tzLabel":"Asia/Ashgabat","tz":"http://www.wikidata.org/entity/Q4806278","cityLabel":"Ashgabat","city":"http://www.wikidata.org/entity/Q23438","lat":"37.95","long":"58.383333333333"},{"tzLabel":"Atlantic/Madeira","tz":"http://www.wikidata.org/entity/Q4816256","cityLabel":"Madeira","city":"http://www.wikidata.org/entity/Q26253","lat":"32.75","long":"-17.0"},{"tzLabel":"Antarctica/Casey","tz":"http://www.wikidata.org/entity/Q4771014","cityLabel":"Casey Station","city":"http://www.wikidata.org/entity/Q1047169","lat":"-66.282343","long":"110.526792"},{"tzLabel":"Asia/Krasnoyarsk","tz":"http://www.wikidata.org/entity/Q4806292","cityLabel":"Krasnoyarsk","city":"http://www.wikidata.org/entity/Q919","lat":"56.016666666667","long":"92.866666666667"},{"tzLabel":"Asia/Gaza","tz":"http://www.wikidata.org/entity/Q63285951","cityLabel":"Gaza City","city":"http://www.wikidata.org/entity/Q47492","lat":"31.516666666667","long":"34.45"},{"tzLabel":"Asia/Kathmandu","tz":"http://www.wikidata.org/entity/Q63285950","cityLabel":"Kathmandu","city":"http://www.wikidata.org/entity/Q3037","lat":"27.716666666667","long":"85.366666666667"},{"tzLabel":"Indian/Mahe","tz":"http://www.wikidata.org/entity/Q63285927","cityLabel":"Mahé","city":"http://www.wikidata.org/entity/Q219642","lat":"-4.6666666666667","long":"55.466666666667"},{"tzLabel":"Pacific/Efate","tz":"http://www.wikidata.org/entity/Q63285991","cityLabel":"Efate","city":"http://www.wikidata.org/entity/Q266594","lat":"-17.666666666667","long":"168.41666666667"},{"tzLabel":"Asia/Brunei","tz":"http://www.wikidata.org/entity/Q63225362","cityLabel":"Brunei","city":"http://www.wikidata.org/entity/Q921","lat":"4.4","long":"114.566667"},{"tzLabel":"Asia/Yangon","tz":"http://www.wikidata.org/entity/Q63285933","cityLabel":"Yangon","city":"http://www.wikidata.org/entity/Q37995","lat":"16.8","long":"96.15"},{"tzLabel":"Asia/Kabul","tz":"http://www.wikidata.org/entity/Q63285929","cityLabel":"Kabul","city":"http://www.wikidata.org/entity/Q5838","lat":"34.532777777778","long":"69.165833333333"},{"tzLabel":"Pacific/Wallis","tz":"http://www.wikidata.org/entity/Q63285993","cityLabel":"Wallis","city":"http://www.wikidata.org/entity/Q489003","lat":"-13.28188","long":"-176.20663"},{"tzLabel":"Asia/Qatar","tz":"http://www.wikidata.org/entity/Q63285955","cityLabel":"Qatar","city":"http://www.wikidata.org/entity/Q846","lat":"25.269535","long":"51.212767"},{"tzLabel":"Atlantic/Faroe","tz":"http://www.wikidata.org/entity/Q63285994","cityLabel":"Faroe Islands","city":"http://www.wikidata.org/entity/Q4628","lat":"61.969944444444","long":"-6.8444805555556"},{"tzLabel":"Indian/Cocos","tz":"http://www.wikidata.org/entity/Q63285963","cityLabel":"Cocos (Keeling) Islands","city":"http://www.wikidata.org/entity/Q36004","lat":"-12.116666666667","long":"96.9"},{"tzLabel":"Asia/Famagusta","tz":"http://www.wikidata.org/entity/Q63285936","cityLabel":"Famagusta","city":"http://www.wikidata.org/entity/Q193190","lat":"35.116666666667","long":"33.95"},{"tzLabel":"Asia/Baghdad","tz":"http://www.wikidata.org/entity/Q63285939","cityLabel":"Baghdad","city":"http://www.wikidata.org/entity/Q1530","lat":"33.35","long":"44.416666666667"},{"tzLabel":"Indian/Christmas","tz":"http://www.wikidata.org/entity/Q63285962","cityLabel":"Christmas Island","city":"http://www.wikidata.org/entity/Q31063","lat":"-10.483333333333","long":"105.63333333333"},{"tzLabel":"Asia/Seoul","tz":"http://www.wikidata.org/entity/Q63285944","cityLabel":"Seoul","city":"http://www.wikidata.org/entity/Q8684","lat":"37.583333333333","long":"127.0"},{"tzLabel":"Asia/Ho_Chi_Minh","tz":"http://www.wikidata.org/entity/Q63285961","cityLabel":"Ho Chi Minh City","city":"http://www.wikidata.org/entity/Q1854","lat":"10.82302","long":"106.62965"},{"tzLabel":"America/Danmarkshavn","tz":"http://www.wikidata.org/entity/Q63285995","cityLabel":"Danmarkshavn","city":"http://www.wikidata.org/entity/Q1164352","lat":"76.7667","long":"-18.6667"},{"tzLabel":"Pacific/Kosrae","tz":"http://www.wikidata.org/entity/Q63285973","cityLabel":"Kosrae","city":"http://www.wikidata.org/entity/Q459848","lat":"5.313333","long":"162.973889"},{"tzLabel":"Asia/Tokyo","tz":"http://www.wikidata.org/entity/Q63285941","cityLabel":"Tokyo","city":"http://www.wikidata.org/entity/Q1490","lat":"35.689722222222","long":"139.69222222222"},{"tzLabel":"Pacific/Bougainville","tz":"http://www.wikidata.org/entity/Q63285984","cityLabel":"Bougainville Island","city":"http://www.wikidata.org/entity/Q201766","lat":"-6.2444444444444","long":"155.38388888889"},{"tzLabel":"Asia/Atyrau","tz":"http://www.wikidata.org/entity/Q63285942","cityLabel":"Atyrau","city":"http://www.wikidata.org/entity/Q486913","lat":"47.116666666667","long":"51.883333333333"},{"tzLabel":"Pacific/Fiji","tz":"http://www.wikidata.org/entity/Q63285964","cityLabel":"Fiji","city":"http://www.wikidata.org/entity/Q712","lat":"-18.0","long":"178.0"},{"tzLabel":"America/Caracas","tz":"http://www.wikidata.org/entity/Q44380220","cityLabel":"Caracas","city":"http://www.wikidata.org/entity/Q1533","lat":"10.5","long":"-66.933333333333"},{"tzLabel":"Asia/Singapore","tz":"http://www.wikidata.org/entity/Q63285957","cityLabel":"Singapore","city":"http://www.wikidata.org/entity/Q334","lat":"1.3","long":"103.8"},{"tzLabel":"America/Guyana","tz":"http://www.wikidata.org/entity/Q63225363","cityLabel":"Guyana","city":"http://www.wikidata.org/entity/Q734","lat":"5.733333","long":"-59.316667"},{"tzLabel":"Asia/Srednekolymsk","tz":"http://www.wikidata.org/entity/Q63230239","cityLabel":"Srednekolymsk","city":"http://www.wikidata.org/entity/Q196464","lat":"67.45","long":"153.7"},{"tzLabel":"Asia/Seoul","tz":"http://www.wikidata.org/entity/Q63285944","cityLabel":"Seoul","city":"http://www.wikidata.org/entity/Q8684","lat":"37.566","long":"126.9784"},{"tzLabel":"Asia/Riyadh","tz":"http://www.wikidata.org/entity/Q63285956","cityLabel":"Riyadh","city":"http://www.wikidata.org/entity/Q3692","lat":"24.65","long":"46.71"},{"tzLabel":"Asia/Dili","tz":"http://www.wikidata.org/entity/Q63285938","cityLabel":"Dili","city":"http://www.wikidata.org/entity/Q9310","lat":"-8.5586111111111","long":"125.57361111111"},{"tzLabel":"Pacific/Fiji","tz":"http://www.wikidata.org/entity/Q63285964","cityLabel":"Fiji","city":"http://www.wikidata.org/entity/Q712","lat":"-18.0","long":"179.0"},{"tzLabel":"Asia/Damascus","tz":"http://www.wikidata.org/entity/Q63285958","cityLabel":"Damascus","city":"http://www.wikidata.org/entity/Q3766","lat":"33.513055555556","long":"36.291944444444"},{"tzLabel":"America/Nassau","tz":"http://www.wikidata.org/entity/Q63230241","cityLabel":"Nassau","city":"http://www.wikidata.org/entity/Q2467","lat":"25.066666666667","long":"-77.333333333333"},{"tzLabel":"Indian/Maldives","tz":"http://www.wikidata.org/entity/Q63285949","cityLabel":"Maldives","city":"http://www.wikidata.org/entity/Q826","lat":"3.2","long":"73.22"},{"tzLabel":"Asia/Pyongyang","tz":"http://www.wikidata.org/entity/Q63285945","cityLabel":"Pyongyang","city":"http://www.wikidata.org/entity/Q18808","lat":"39.03","long":"125.73"},{"tzLabel":"Pacific/Pago_Pago","tz":"http://www.wikidata.org/entity/Q63285986","cityLabel":"Pago Pago","city":"http://www.wikidata.org/entity/Q51678","lat":"-14.273055555556","long":"-170.70277777778"},{"tzLabel":"Indian/Kerguelen","tz":"http://www.wikidata.org/entity/Q63285928","cityLabel":"Kerguelen Islands","city":"http://www.wikidata.org/entity/Q46772","lat":"-49.25","long":"69.166666666667"},{"tzLabel":"Asia/Hebron","tz":"http://www.wikidata.org/entity/Q63285952","cityLabel":"Hebron","city":"http://www.wikidata.org/entity/Q168225","lat":"31.535","long":"35.098611111111"},{"tzLabel":"Indian/Mauritius","tz":"http://www.wikidata.org/entity/Q63224579","cityLabel":"Mauritius","city":"http://www.wikidata.org/entity/Q1027","lat":"-20.2","long":"57.5"},{"tzLabel":"Asia/Dushanbe","tz":"http://www.wikidata.org/entity/Q63285959","cityLabel":"Dushanbe","city":"http://www.wikidata.org/entity/Q9365","lat":"38.573055555556","long":"68.786388888889"},{"tzLabel":"Pacific/Wallis","tz":"http://www.wikidata.org/entity/Q63285993","cityLabel":"Wallis","city":"http://www.wikidata.org/entity/Q489003","lat":"-13.294173","long":"-176.202335"},{"tzLabel":"Indian/Reunion","tz":"http://www.wikidata.org/entity/Q63285926","cityLabel":"Réunion","city":"http://www.wikidata.org/entity/Q17070","lat":"-21.114444444444","long":"55.5325"},{"tzLabel":"Pacific/Noumea","tz":"http://www.wikidata.org/entity/Q63285975","cityLabel":"Noumea","city":"http://www.wikidata.org/entity/Q9733","lat":"-22.266666666667","long":"166.45"},{"tzLabel":"Asia/Ho_Chi_Minh","tz":"http://www.wikidata.org/entity/Q63285961","cityLabel":"Ho Chi Minh City","city":"http://www.wikidata.org/entity/Q1854","lat":"10.816666666667","long":"106.63333333333"},{"tzLabel":"America/Scoresbysund","tz":"http://www.wikidata.org/entity/Q63285996","cityLabel":"Ittoqqortoormiit","city":"http://www.wikidata.org/entity/Q321279","lat":"70.485277777778","long":"-21.966666666667"},{"tzLabel":"Pacific/Fakaofo","tz":"http://www.wikidata.org/entity/Q63230236","cityLabel":"Fakaofo","city":"http://www.wikidata.org/entity/Q650847","lat":"-9.3652777777778","long":"-171.215"},{"tzLabel":"Asia/Baku","tz":"http://www.wikidata.org/entity/Q63285931","cityLabel":"Baku","city":"http://www.wikidata.org/entity/Q9248","lat":"40.366655555556","long":"49.835183333333"},{"tzLabel":"Pacific/Niue","tz":"http://www.wikidata.org/entity/Q63285980","cityLabel":"Niue","city":"http://www.wikidata.org/entity/Q34020","lat":"-19.05","long":"-169.91666666667"},{"tzLabel":"America/Winnipeg","tz":"http://www.wikidata.org/entity/Q28146160","cityLabel":"Winnipeg","city":"http://www.wikidata.org/entity/Q2135","lat":"49.883333","long":"-97.15"},{"tzLabel":"America/St_Johns","tz":"http://www.wikidata.org/entity/Q63225364","cityLabel":"St. John's","city":"http://www.wikidata.org/entity/Q2082","lat":"47.5675","long":"-52.707222222222"},{"tzLabel":"Pacific/Palau","tz":"http://www.wikidata.org/entity/Q63285982","cityLabel":"Palau","city":"http://www.wikidata.org/entity/Q695","lat":"7.466667","long":"134.55"},{"tzLabel":"Pacific/Nauru","tz":"http://www.wikidata.org/entity/Q63285974","cityLabel":"Nauru","city":"http://www.wikidata.org/entity/Q697","lat":"-0.53333333333333","long":"166.93333333333"},{"tzLabel":"Pacific/Norfolk","tz":"http://www.wikidata.org/entity/Q63285981","cityLabel":"Norfolk Island","city":"http://www.wikidata.org/entity/Q31057","lat":"-29.033333333333","long":"167.94972222222"},{"tzLabel":"Pacific/Wake","tz":"http://www.wikidata.org/entity/Q63285990","cityLabel":"Wake Island","city":"http://www.wikidata.org/entity/Q43296","lat":"19.3","long":"166.63333333333"},{"tzLabel":"Asia/Beirut","tz":"http://www.wikidata.org/entity/Q63285946","cityLabel":"Beirut","city":"http://www.wikidata.org/entity/Q3820","lat":"33.886944444444","long":"35.513055555556"},{"tzLabel":"Pacific/Guam","tz":"http://www.wikidata.org/entity/Q63285967","cityLabel":"Guam","city":"http://www.wikidata.org/entity/Q16635","lat":"13.5","long":"144.8"},{"tzLabel":"Europe/Tallinn","tz":"http://www.wikidata.org/entity/Q28148648","cityLabel":"Tallinn","city":"http://www.wikidata.org/entity/Q1770","lat":"59.437222222222","long":"24.745"},{"tzLabel":"America/North_Dakota/New_Salem","tz":"http://www.wikidata.org/entity/Q63230240","cityLabel":"New Salem","city":"http://www.wikidata.org/entity/Q28115","lat":"46.843055555556","long":"-101.41194444444"},{"tzLabel":"Asia/Tomsk","tz":"http://www.wikidata.org/entity/Q63230238","cityLabel":"Tomsk","city":"http://www.wikidata.org/entity/Q976","lat":"56.488611111111","long":"84.952222222222"},{"tzLabel":"Asia/Kuala_Lumpur","tz":"http://www.wikidata.org/entity/Q63285947","cityLabel":"Kuala Lumpur","city":"http://www.wikidata.org/entity/Q1865","lat":"3.1477777777778","long":"101.69527777778"},{"tzLabel":"Pacific/Fakaofo","tz":"http://www.wikidata.org/entity/Q63230236","cityLabel":"Fakaofo","city":"http://www.wikidata.org/entity/Q650847","lat":"-9.376","long":"-171.233"},{"tzLabel":"Asia/Nicosia","tz":"http://www.wikidata.org/entity/Q63285935","cityLabel":"Nicosia","city":"http://www.wikidata.org/entity/Q3856","lat":"35.1725","long":"33.365"},{"tzLabel":"Asia/Bishkek","tz":"http://www.wikidata.org/entity/Q63285943","cityLabel":"Bishkek","city":"http://www.wikidata.org/entity/Q9361","lat":"42.866666666667","long":"74.566666666667"},{"tzLabel":"Pacific/Marquesas","tz":"http://www.wikidata.org/entity/Q63285966","cityLabel":"Marquesas Islands","city":"http://www.wikidata.org/entity/Q172697","lat":"-9.0","long":"-139.5"},{"tzLabel":"Pacific/Gambier","tz":"http://www.wikidata.org/entity/Q63285965","cityLabel":"Gambier Islands","city":"http://www.wikidata.org/entity/Q504043","lat":"-23.14","long":"-134.94"},{"tzLabel":"Asia/Jerusalem","tz":"http://www.wikidata.org/entity/Q63285940","cityLabel":"Jerusalem","city":"http://www.wikidata.org/entity/Q1218","lat":"31.783333333333","long":"35.216666666667"},{"tzLabel":"Europe/Sofia","tz":"http://www.wikidata.org/entity/Q28148701","cityLabel":"Sofia","city":"http://www.wikidata.org/entity/Q472","lat":"42.69751","long":"23.32415"},{"tzLabel":"Pacific/Chuuk","tz":"http://www.wikidata.org/entity/Q63285972","cityLabel":"Chuuk Lagoon","city":"http://www.wikidata.org/entity/Q3593555","lat":"7.43333333","long":"151.85"},{"tzLabel":"Asia/Manila","tz":"http://www.wikidata.org/entity/Q63285954","cityLabel":"Manila","city":"http://www.wikidata.org/entity/Q1461","lat":"14.595833333333","long":"120.97722222222"},{"tzLabel":"America/Havana","tz":"http://www.wikidata.org/entity/Q63230233","cityLabel":"Havana","city":"http://www.wikidata.org/entity/Q1563","lat":"23.136666666667","long":"-82.358888888889"},{"tzLabel":"Pacific/Guadalcanal","tz":"http://www.wikidata.org/entity/Q63285988","cityLabel":"Guadalcanal","city":"http://www.wikidata.org/entity/Q192767","lat":"-9.6166666666667","long":"160.18333333333"},{"tzLabel":"Asia/Colombo","tz":"http://www.wikidata.org/entity/Q63230234","cityLabel":"Colombo","city":"http://www.wikidata.org/entity/Q35381","lat":"6.9166666666667","long":"79.833333333333"},{"tzLabel":"Pacific/Enderbury","tz":"http://www.wikidata.org/entity/Q63285969","cityLabel":"Enderbury Island","city":"http://www.wikidata.org/entity/Q30638","lat":"-3.1333333333333","long":"-171.08333333333"},{"tzLabel":"Pacific/Kwajalein","tz":"http://www.wikidata.org/entity/Q63285971","cityLabel":"Kwajalein","city":"http://www.wikidata.org/entity/Q309172","lat":"8.7166666666667","long":"167.73333333333"},{"tzLabel":"Pacific/Chatham","tz":"http://www.wikidata.org/entity/Q63285977","cityLabel":"Chatham Islands","city":"http://www.wikidata.org/entity/Q115459","lat":"-44.0","long":"-176.58333333333"},{"tzLabel":"Pacific/Tahiti","tz":"http://www.wikidata.org/entity/Q29321056","cityLabel":"Tahiti","city":"http://www.wikidata.org/entity/Q42000","lat":"-17.666666666667","long":"-149.46666666667"},{"tzLabel":"Asia/Kuching","tz":"http://www.wikidata.org/entity/Q63285948","cityLabel":"Kuching","city":"http://www.wikidata.org/entity/Q220445","lat":"1.539722","long":"110.354167"},{"tzLabel":"Europe/Saratov","tz":"http://www.wikidata.org/entity/Q63230237","cityLabel":"Saratov","city":"http://www.wikidata.org/entity/Q5332","lat":"51.533333333333","long":"46.0"},{"tzLabel":"Pacific/Majuro","tz":"http://www.wikidata.org/entity/Q63285970","cityLabel":"Majuro","city":"http://www.wikidata.org/entity/Q12919","lat":"7.0666666666667","long":"171.26666666667"},{"tzLabel":"Pacific/Funafuti","tz":"http://www.wikidata.org/entity/Q63285989","cityLabel":"Funafuti","city":"http://www.wikidata.org/entity/Q34126","lat":"-8.5166666666667","long":"179.21666666667"},{"tzLabel":"Pacific/Tarawa","tz":"http://www.wikidata.org/entity/Q63285968","cityLabel":"Tarawa","city":"http://www.wikidata.org/entity/Q2486","lat":"1.4333333333333","long":"173.0"},{"tzLabel":"Pacific/Pitcairn","tz":"http://www.wikidata.org/entity/Q63285985","cityLabel":"Pitcairn Islands","city":"http://www.wikidata.org/entity/Q35672","lat":"-25.0677812","long":"-130.1045778"},{"tzLabel":"Asia/Macau","tz":"http://www.wikidata.org/entity/Q63230231","cityLabel":"Macau","city":"http://www.wikidata.org/entity/Q14773","lat":"22.166666666667","long":"113.55"},{"tzLabel":"Pacific/Apia","tz":"http://www.wikidata.org/entity/Q63285987","cityLabel":"Apia","city":"http://www.wikidata.org/entity/Q36260","lat":"-13.833333333333","long":"-171.83333333333"},{"tzLabel":"Europe/Vilnius","tz":"http://www.wikidata.org/entity/Q28148652","cityLabel":"Vilnius","city":"http://www.wikidata.org/entity/Q216","lat":"54.683333333333","long":"25.283333333333"},{"tzLabel":"America/Godthab","tz":"http://www.wikidata.org/entity/Q63285997","cityLabel":"Nuuk","city":"http://www.wikidata.org/entity/Q226","lat":"64.175","long":"-51.733333333333"},{"tzLabel":"Pacific/Rarotonga","tz":"http://www.wikidata.org/entity/Q63285979","cityLabel":"Rarotonga","city":"http://www.wikidata.org/entity/Q471793","lat":"-21.233333333333","long":"-159.78333333333"},{"tzLabel":"Pacific/Pohnpei","tz":"http://www.wikidata.org/entity/Q63230235","cityLabel":"Pohnpei","city":"http://www.wikidata.org/entity/Q319836","lat":"6.85","long":"158.21666666667"},{"tzLabel":"Asia/Macau","tz":"http://www.wikidata.org/entity/Q63230231","cityLabel":"Macau","city":"http://www.wikidata.org/entity/Q14773","lat":"22.20056","long":"113.54611"},{"tzLabel":"Indian/Chagos","tz":"http://www.wikidata.org/entity/Q63285932","cityLabel":"Chagos Archipelago","city":"http://www.wikidata.org/entity/Q192188","lat":"-6.2833333333333","long":"72.083333333333"},{"tzLabel":"Pacific/Port_Moresby","tz":"http://www.wikidata.org/entity/Q63285983","cityLabel":"Port Moresby","city":"http://www.wikidata.org/entity/Q36526","lat":"-9.4788888888889","long":"147.14944444444"},{"tzLabel":"Asia/Tbilisi","tz":"http://www.wikidata.org/entity/Q63285937","cityLabel":"Tbilisi","city":"http://www.wikidata.org/entity/Q994","lat":"41.694166666667","long":"44.8336"},{"tzLabel":"Asia/Tbilisi","tz":"http://www.wikidata.org/entity/Q63285937","cityLabel":"Tbilisi","city":"http://www.wikidata.org/entity/Q994","lat":"41.6942","long":"44.8336"},{"tzLabel":"Asia/Tbilisi","tz":"http://www.wikidata.org/entity/Q63285937","cityLabel":"Tbilisi","city":"http://www.wikidata.org/entity/Q994","lat":"41.694166666667","long":"44.833611111111"},{"tzLabel":"Asia/Tbilisi","tz":"http://www.wikidata.org/entity/Q63285937","cityLabel":"Tbilisi","city":"http://www.wikidata.org/entity/Q994","lat":"41.6942","long":"44.833611111111"},{"tzLabel":"Asia/Samarkand","tz":"http://www.wikidata.org/entity/Q63285960","cityLabel":"Samarkand","city":"http://www.wikidata.org/entity/Q5753","lat":"39.654166666667","long":"66.959722222222"},{"tzLabel":"Atlantic/Cape_Verde","tz":"http://www.wikidata.org/entity/Q63285925","cityLabel":"Cape Verde","city":"http://www.wikidata.org/entity/Q1011","lat":"15.916666666667","long":"-24.083333333333"},{"tzLabel":"Pacific/Auckland","tz":"http://www.wikidata.org/entity/Q63285976","cityLabel":"Auckland","city":"http://www.wikidata.org/entity/Q37100","lat":"-36.85","long":"174.78333333333"}]